nome,tipo,latitude,longitude
Sem nome,UBS/Médico,-15.7377202,-47.9199635
Sem nome,UBS/Médico,-15.7384869,-47.9274627
Emergência do Hospital Regional de Taguatinga - HRT,Hospital,-15.8229272,-48.0687961
Faculdades Integradas ICESP,Escola,-15.8536894,-48.0320303
Centro Educacional Sigma Águas Claras,Escola,-15.8384039,-48.0192201
Faculdade Darwin,Universidade,-15.8648046,-48.0244665
FACITEC,Escola,-15.8699986,-48.0327405
Escola Aplicação,Escola,-15.7876428,-47.9367737
Santa Lucia Prontonorte,Hospital,-15.7356441,-47.8955006
Sabin,Clínica,-15.8210599,-47.9811224
Hospital Municipal de Santo Antônio do Descoberto,Hospital,-15.9476971,-48.2664698
Creche Municipal Tia Diza,Escola,-15.9522097,-48.2601289
Dom Orione,Escola,-15.855864,-47.8773516
Hospital SARAH,Hospital,-15.799489,-47.890839
Bravo,Escola,-15.7638025,-47.893711
UNIP Pólo 7,Universidade,-15.7636432,-47.8919226
Laboratório Sabin,Clínica,-15.7215434,-47.8817076
CNA,Escola,-16.0257232,-48.060501
Centro Radiológico do Gama,Clínica,-16.0250569,-48.0709833
Centro de Saúde 2 do gama,Hospital,-16.036829,-48.0610962
Centro de Saúde 4 do Gama,Clínica,-16.0260957,-48.0568531
Centro de Saúde 6 do Gama,Hospital,-16.0115414,-48.0739784
Centro de Saúde 8 do Gama,Hospital,-16.0138187,-48.0675316
Colégio Brasilia,Escola,-16.0192947,-48.0618019
Colégio Centro Educacional da Criança,Escola,-16.0264664,-48.0545654
Colégio JK,Escola,-16.0174522,-48.0616798
Colégio Objetivo,Escola,-16.0185394,-48.0561333
Colégio Vitória,Escola,-16.0154476,-48.0615349
Cooplem Idiomas,Escola,-16.0201188,-48.062448
Cursos Impacto,Escola,-16.0223999,-48.0733223
Cursos de Brigadista,Escola,-16.029122,-48.0647815
Escola Adventista,Escola,-16.0145671,-48.0688129
Escola Brincando e Construindo o Futuro,Escola,-16.0297966,-48.0680275
Elite Rede de Ensino - Gama,Escola,-16.0160103,-48.0589561
Escola Centro Recreativo Aprender,Escola,-16.0141093,-48.0743533
Escola Clube da Criança,Escola,-16.0219345,-48.0734978
Escola Compact,Escola,-16.015049,-48.0599442
Centro Educacional Ebenézer,Escola,-16.0320435,-48.065854
Escola INEB,Escola,-16.0129344,-48.0655773
Escola Missão Criança,Escola,-16.0110815,-48.0790189
Escola Presbiteriana,Escola,-16.0210705,-48.0617714
Escola de musica Dó Ré Mi,Escola,-16.0252209,-48.0732651
Escola e Creche do Divino Espírito Santo,Escola,-16.0061474,-48.0819664
Escolinha e Creche - Barquinho de Papel,Escola,-16.0287132,-48.0673103
UNICEPLAC,Escola,-16.0026512,-48.0514603
Faculdade Fortium,Universidade,-16.022089,-48.0607101
Gran Cursos,Escola,-16.0116135,-48.0598231
Jardim de Infância Beija Flor,Escola,-16.0195351,-48.0570068
New Tec Informática,Escola,-16.0252844,-48.0656456
Planeta da Criança,Escola,-16.0190754,-48.062149
Colégio Nossa Senhora Aparecida,Escola,-16.004051,-47.9885286
Colégio Santa Maria,Escola,-16.0045744,-47.9888807
Escola Classe 203 Santa Maria,Escola,-16.0383873,-48.0335984
Escola Ser Criança,Escola,-16.000747,-47.994634
Centro Comunitário da Criança,Escola,-15.8330177,-48.1069185
CNA - Escola de Idiomas,Escola,-15.8243144,-48.1054611
COSE - Guariroba,Escola,-15.833395,-48.1063097
COSE - P SUL,Escola,-15.8417564,-48.1166453
Centro de Ensino WGS,Escola,-15.8060591,-48.1389611
Colegio Alencar,Escola,-15.8462788,-48.1131773
Colegio Anchieta,Escola,-15.8310841,-48.1001178
Colégio Mariano,Escola,-15.8098431,-48.10127
Colegio Tiradentes,Escola,-15.8446286,-48.1108221
Colegio Unisaber Sul,Escola,-15.8392421,-48.1093042
Nucleo de Práticas Jurídicas da UNB de Ceilândia,Escola,-15.8211861,-48.1133097
Projeto Golfinho,Escola,-15.8298712,-48.1085862
Centro de Saúde 01,Hospital,-15.67731,-48.1951561
Unidade Básica de Saúde nº 2 Brazlândia,Hospital,-15.6589303,-48.1930084
Colégio Impacto Coc,Escola,-15.6839972,-48.1952896
Hospital Regional de Brazlândia,Hospital,-15.675078,-48.203674
Centro de Saúde 2 Recanto das Emas- DF,Hospital,-15.9023697,-48.0602228
Colégio Recreação,Escola,-15.9049406,-48.0598703
FTB Campus II,Escola,-15.901033,-48.121567
Microlins,Escola,-15.9033257,-48.0623335
Escola Classe Café sem Troco,Escola,-15.9192648,-47.6057965
Centro de Ensino Fundamental Fercal,Escola,-15.5904988,-47.8809508
Ambulatório do Hospital Regional de Taguatinga - HRT,Hospital,-15.8220712,-48.0688106
Grupo Escoteiro Caio Martins,Escola,-15.7740374,-47.9362068
Wizard Idiomas,Escola,-15.816858,-47.9801574
ALUB,Escola,-15.8309132,-48.0578653
Colegio Triangulo de TAguatinga,Escola,-15.7959515,-48.1093905
ESPU,Escola,-15.816841,-48.0662859
SENAC - Centro de Formação Profissional de Taguatinga,Escola,-15.796279,-48.0577812
Alvacir Vite Rossi,Escola,-15.765307,-47.896035
Brasília International School,Escola,-15.8226888,-47.9262817
CECAP,Escola,-15.745278,-47.840833
CNA Inglês,Escola,-15.725494,-47.872697
Colégio Militar Dom Pedro II,Escola,-15.8347236,-47.9390565
Cenel,Escola,-15.6368771,-47.8445053
Centro Educacional Arco-Íris,Escola,-15.6486027,-47.7997821
Centro Educacional Gisno,Escola,-15.7687155,-47.8949566
Centro Educacional Maria Auxiliadora,Escola,-15.7988276,-47.8953482
Centro Educacional São Camilo,Escola,-15.7473005,-47.9003399
Centro Interescolar de Educação Física - CIEF,Escola,-15.8063065,-47.9097482
CEF 01 de Sobradinho,Escola,-15.655718,-47.7885314
Centro de Ensino Fundamental 1,Escola,-15.8129451,-47.8976236
Centro de Ensino Fundamental 104 Norte,Escola,-15.774934,-47.8836925
Centro de Ensino Fundamental 3,Escola,-15.8055468,-47.8916085
Centro de Ensino Fundamental 4 de Brasília,Escola,-15.8270149,-47.9173874
Colégio Adventista Milton Afonso,Escola,-15.8291326,-47.9050925
Colégio Agrícola,Escola,-15.6577126,-47.6940793
Colégio Arvense,Escola,-15.7477512,-47.8999276
Colégio Batista,Escola,-15.8050732,-47.9020421
Colégio Dom Bosco,Escola,-15.7994316,-47.8942905
Colégio INEI,Escola,-15.841944,-47.88
Cooplem Idiomas,Escola,-15.7558357,-47.8943113
Educandário Eurípedes Barsanulfo - EEB,Escola,-15.6550292,-47.7967346
Escola Agrotécnica Federal de Brasília,Escola,-15.6577056,-47.6940806
Escola Canarinho,Escola,-15.8054734,-47.9045441
Escola Cantinho Magico,Escola,-15.8283782,-47.8117873
Escola Classe 02 do Arapoanga,Escola,-15.6361111,-47.6322222
Escola Classe 10 - Planaltina,Escola,-15.6029933,-47.6536444
Escola Classe 106 Norte,Escola,-15.7692839,-47.8839733
Escola Classe 107 Sul,Escola,-15.8152956,-47.90119
Escola Classe 108 Sul,Escola,-15.8170478,-47.9032166
Escola Classe 304 Norte,Escola,-15.7763018,-47.8862384
Escola Classe 308 Sul,Escola,-15.8136256,-47.9052186
Escola Classe 314 Sul,Escola,-15.8267729,-47.9217906
Escola Classe 416 Sul,Escola,-15.8378383,-47.9219171
Escola Classe SQS 111,Escola,-15.8232371,-47.9119572
Escola Classe,Escola,-15.8745589,-47.8405302
Escola de Governo do Distrito Federal - EGOV,Escola,-15.780804,-47.912685
Escola Nossa Senhora de Fátima,Escola,-15.8062212,-47.9067235
Escola das Nações 2,Escola,-15.852778,-47.847222
Escola das Nações,Escola,-15.853889,-47.850556
Escola de Voo Livre,Escola,-15.8380742,-47.8646001
Fundação de Ensino e Pesquisa em Ciências da Saúde,Escola,-15.7850062,-47.8867342
Indi Bibia,Escola,-15.729933,-47.862639
Infllux Idiomas,Escola,-15.868533,-47.8211382
Colégio La Salle,Escola,-15.6513733,-47.7816368
Luduvico Pavoni,Escola,-15.7631953,-47.8950202
Number One Idiomas,Escola,-15.857895,-47.831413
Olimpo,Escola,-15.8087146,-47.9129767
Seminário Presbiteriano de Brasília,Escola,-15.8044872,-47.9047197
Sociedade Teosófica de Brasília,Escola,-15.8121548,-47.8849373
UNIDF,Escola,-15.8022407,-47.9004287
UPIS - Hospital Veterinário - Planaltina,Escola,-15.5791073,-47.7295952
UPIS,Escola,-15.5799917,-47.7287736
UnB - CTIC - Centro Tecnológico da Informática e Construção,Escola,-15.7732725,-47.8668075
UnB - Emporio ambiental,Escola,-15.760308,-47.873554
UnB - NTI - Núcleo de Tecnologia da Informação,Escola,-15.7734117,-47.8669524
Núcleo de Dança,Escola,-15.7652939,-47.8717605
UnB - OCA 2,Escola,-15.767088,-47.870226
Wizard - inglês e Espanhol,Escola,-15.8533736,-47.948056
Wizard Idiomas,Escola,-15.868669,-47.8212286
Clínica São Marcos,Clínica,-15.8155117,-48.0631254
Instituto Ortopédico Taguatinga,Clínica,-15.8135039,-48.064172
Faculdade SENAC Taguatinga,Universidade,-15.7961617,-48.0574913
Hospital Santa Paula,Hospital,-15.616225,-47.6548139
Centro de Recuperação Leão de Judá,Hospital,-15.655,-47.6694444
Centro de Saúde 01 de Taguatinga,Hospital,-15.7954898,-48.0594312
UBS 1 - Itapoã,Clínica,-15.7402115,-47.7631732
Centro de Saúde 1 - Itapoã,Hospital,-15.745556,-47.769722
Unidade Básica de Saúde Nº 03 de Taguatinga,Clínica,-15.8329887,-48.0774689
Hospital Militar de Área de Brasília,Hospital,-15.7725624,-47.9300092
Hospital Regional de Planaltina,Hospital,-15.6247833,-47.6527389
Posto de Saúde - Sobradinho 2,Clínica,-15.6445761,-47.8244591
Centro de Saúde 01 de Planaltina,Clínica,-15.6250361,-47.650975
Unidade Básica de Saúde 1,Clínica,-15.6505281,-47.7820789
Posto de Saúde 10,Clínica,-15.725866,-47.8739
Posto de Saúde 2 de São Sebastião,Clínica,-15.907913,-47.778059
Posto de Saúde N° 02 de Sobradinho,Clínica,-15.6544912,-47.8095325
Unidade IOLB Instituto Odontológico,Hospital,-15.6707667,-47.8452389
Unidade Mista de Saúde - UMSS,Hospital,-15.90243,-47.772581
Centro Clínico Metrópolis,Clínica,-15.8210322,-47.8939734
Biosphere Health Center,Clínica,-15.7361068,-47.8942008
COOPLEM,Escola,-15.8143677,-48.0980469
Clínica IBED,Clínica,-15.7375157,-47.8978043
Mansão Vida,Hospital,-15.9338889,-48.2291667
Visão Institutos Oftalmológicos INBOL-ISOB,Clínica,-15.8226945,-48.0655787
Visão Institutos Oftalmológicos INBOL-ISOB,Clínica,-15.8234361,-47.9264537
Laboratório Sabin,UBS/Médico,-15.8144693,-48.0978847
Laboratório Sabin,Clínica,-15.8158729,-48.1013185
Ideal,Escola,-15.8014585,-48.0633524
Cantinho do Girassol,Escola,-15.8050067,-48.1038484
PAI - Pronto Atendimento Infantil,Hospital,-15.8279145,-47.9285471
Hemoclínica,Clínica,-15.8277442,-47.9283164
Educandário José de Alencar,Escola,-15.7545838,-47.896793
Cultura Inglesa,Escola,-15.7568857,-47.8915757
Laboratório Sabin,Clínica,-15.75714,-47.8935965
BSB Musical,Escola,-15.7517793,-47.8972958
FISK,Escola,-15.8558483,-48.0391151
C.C.A.A.,Escola,-15.5461732,-47.3410738
ITAC - Instituto Técnico de Aviação Civil,Escola,-15.780827,-47.8899709
Clinique,Clínica,-15.8233399,-47.9263729
Sem nome,Clínica,-16.0133071,-48.012726
Wizard,Escola,-15.7772176,-47.8790491
Castelinho Pim,Escola,-15.836548,-47.9717408
Natural English,Escola,-15.7447813,-47.8870335
DeRose Method Sudoeste,Escola,-15.8009087,-47.9264622
Creche Mãe Lurdes,Escola,-15.8084444,-48.1125261
Wise Explorer,Escola,-15.7742532,-47.885612
Professor Filemon,Escola,-15.7806989,-47.8881207
Sem nome,Hospital,-15.5643326,-47.3366213
SENAC - Jessé Freire,Escola,-15.7962275,-47.890141
Brasas English Course,Escola,-15.7526913,-47.8892052
Laboratório Pasteur,Clínica,-15.7852225,-47.8848246
Magister,Escola,-15.7810153,-47.8846428
Colinho de Mãe,Escola,-15.7698782,-47.891203
Escola Teatral Confins-Artísticos,Escola,-15.756197,-47.8941769
Escola Mãe da Divina Providência,Escola,-15.8004217,-47.9403257
Creche Pró-Infância,Escola,-15.7966406,-47.9390417
United,Escola,-15.7508063,-47.8845487
Oficina do Saber,Escola,-15.8159456,-47.9883973
Aliança Francesa,Escola,-15.8393498,-48.0178032
CIESB - Centro Internacional Evangélico Suíço-Brasileiro,Escola,-15.8443803,-48.030933
Colégio Kairós,Escola,-15.8550457,-48.0317464
Kumon,Escola,-15.7450176,-47.8876103
You Move,Escola,-15.7577129,-47.8943021
Estação Experimental de Biologia,Universidade,-15.736371,-47.8834366
Sem nome,Escola,-15.8663712,-47.9631406
Prime Excelência Médica,Clínica,-15.8225766,-48.0661397
Curso de Italiano Dante Alighieri,Escola,-15.7524959,-47.894924
Cultura Inglesa,Escola,-15.7763398,-47.8883207
Empório Cultural,Escola,-15.7513644,-47.8959442
Karashima,Escola,-15.8231028,-47.9178094
Instituto de Artes Daniela Jorge,Escola,-15.7510834,-47.8854008
Musiflex,Escola,-15.7633981,-47.8915962
Aviãozinho de Papel,Escola,-15.8364346,-47.9707036
Sem nome,Escola,-15.8028104,-47.8108418
Wise Up,Escola,-15.7768953,-47.8885421
Sabim,UBS/Médico,-15.883555,-48.0185624
Auto-Escola,Escola,-15.8806444,-48.0187481
Supletivos,Escola,-15.8803596,-48.0188691
Creche Canela de Ema,Escola,-15.6473437,-47.8211637
BASE SAMU,Hospital,-16.0282893,-48.0243617
Colégio Paloma,Escola,-16.0268181,-48.0257206
Centro de Saúde Nº 01,Clínica,-16.0268472,-48.026509
Unico - Universidade Corporativa dos Correios,Universidade,-15.7701421,-47.8613586
Zero Um,Escola,-15.7637279,-47.8934937
Yes - Inglês e Espanhol,Escola,-15.7632647,-47.8920531
Colégio Biângulo,Escola,-15.8144133,-48.0861623
FIB Consultório Médico,UBS/Médico,-15.7361016,-47.8959375
Estúdio Mappa,Escola,-15.7964595,-47.9167338
Wise Up,Escola,-15.8307568,-47.9241986
ALUB,Escola,-15.7747066,-47.8887807
Enzo suelem,Hospital,-15.9185718,-48.0976517
Cultura Italiana,Escola,-15.7808978,-47.8850811
Uninter,Universidade,-15.7641688,-47.8932991
Uptime,Escola,-15.8088076,-47.9009976
Yes,Escola,-15.810664,-47.9034878
Sabin,Clínica,-15.8141214,-47.9135942
Wizard,Escola,-15.763647,-47.8918119
SuperGeeks,Escola,-15.7810471,-47.8902963
Climut,Clínica,-15.6183829,-47.6564159
Bravo,Escola,-15.766797,-47.8780643
Me põe na história,Escola,-15.7751531,-47.889112
Espaço Saúde,Clínica,-15.7747795,-47.8862906
Colégio Seriös,Escola,-15.7973083,-47.897349
Ignição Digital,Escola,-15.7387711,-47.8986767
Laboratório Sabin,Clínica,-15.8126752,-47.9116878
SIASS-DF,UBS/Médico,-15.8014039,-47.8699871
inFlux Sudoeste,Escola,-15.7968633,-47.9279436
Congregação Irmãs Oblatas do Menino Jesus,Escola,-15.6725652,-48.1920014
Bom de Bola,Escola,-15.6777575,-48.2013734
Posto de saúde da 202,Hospital,-16.0400714,-48.0306294
Instituto de Educação Montesquieu,Escola,-15.7975744,-48.0458368
Coplen Idiomas,Escola,-15.824678,-47.9228147
Centro de Ensino Médio 04 de Ceilândia,Escola,-15.8311605,-48.1079133
Centro de Ensino Fundamental 07 de Ceilândia,Escola,-15.8306695,-48.0993198
Centro Interescolar de Línguas de Ceilândia,Escola,-15.823914,-48.1000843
Departamento de Geografia,Universidade,-15.7615157,-47.8705926
Tactus Fisioterapia,Clínica,-15.7210214,-47.8818361
Escola da Árvore,Escola,-15.7113422,-47.8443328
Creche Soldadinho de Chumbo,Escola,-15.774451,-47.9365586
Colégio Mafra,Escola,-15.8097543,-48.001468
Ambulatório II,Hospital,-15.7701994,-47.8734075
Universidade Corporativa Banco do Brasil,Universidade,-15.798931,-47.8971883
Park Idiomas,Escola,-15.7640952,-47.8933901
The Kids Club,Escola,-15.8377703,-48.0170057
Park Idiomas,Escola,-15.8377878,-48.0170443
Sabin,Clínica,-15.8354772,-48.0175377
Exame,Clínica,-15.8354834,-48.0191377
Wizard,Escola,-15.8819055,-48.0144848
GTR Instituto de Música,Escola,-15.7638924,-47.8923687
Clínica Ana Maia,Clínica,-15.7640912,-47.8930117
Sabin,Clínica,-15.7640646,-47.8929418
Clinica Médica,UBS/Médico,-15.8014592,-47.9347803
Gastroenterologia,UBS/Médico,-15.8015414,-47.9347132
Pneumologia e Alergia,UBS/Médico,-15.8012793,-47.9349043
Laboratório de Analises Clínicas,UBS/Médico,-15.8011502,-47.9349917
Proctologia,UBS/Médico,-15.8010563,-47.9352438
Cardiologia,UBS/Médico,-15.8011091,-47.9353312
Oftalmologia,UBS/Médico,-15.8011894,-47.9354894
Clínica Cirúrgica,Clínica,-15.8012691,-47.9353625
Urologia,UBS/Médico,-15.8013365,-47.9354863
Pediatria,UBS/Médico,-15.8014466,-47.9353882
Ortopedia,UBS/Médico,-15.8015612,-47.9352925
Ginecologia,UBS/Médico,-15.8016825,-47.9351991
Otorrinolaringologia,UBS/Médico,-15.8014739,-47.9351484
Urocentro,Hospital,-15.8212803,-47.9282777
Clinica de Otorrino Brasilia DF - Asa Sul | Otorrinolaringologia,Hospital,-15.8265631,-47.9307571
Centro Educacional Brink Kids,Escola,-15.8176009,-48.0188865
Clínica do Sono Águas Claras - Taguatinga - DF,Hospital,-15.8412205,-48.028152
Departamento de Ciência da Computação da UnB,Universidade,-15.7585358,-47.8689236
Escola Classe 16,Escola,-15.7936841,-48.1294949
Escola Classe 16,Escola,-15.7869018,-48.1269556
Faculdade de Medicina da UnB,Universidade,-15.7687199,-47.8662138
Instituto Gastronômico das Américas,Escola,-15.7393561,-47.9011257
Núcleo de Nutrição,Universidade,-15.7699393,-47.8676722
Centro de Desenvolvimento Sustentável - CDS,Universidade,-15.7685438,-47.8693444
DIMEQ,Universidade,-15.7724199,-47.8675484
Sala de Sal,Clínica,-15.8334316,-48.0435281
Praouvir,Clínica,-15.8140363,-47.9136807
Digimed,Clínica,-15.813569,-47.9129635
Faculdade ISCON,Escola,-15.8133609,-47.9133621
Uroclinic,Clínica,-15.813993,-47.9136621
Morada Montessori,Escola,-15.8128268,-47.906446
Vitallab,Clínica,-15.813055,-47.9067448
Juliana Castro Instituto de Dança,Escola,-15.812966,-47.9066201
pérola I,Hospital,-15.7380763,-48.2566411
Sem nome,Hospital,-15.7381127,-48.256666
CNA Taguatinga,Escola,-15.837649,-48.0548833
Medcor,Clínica,-15.8069028,-47.9330735
IDESP,Escola,-15.7698095,-47.8888027
CAPS Flor de Lótus,Hospital,-16.012906,-48.0046179
Clinisan,Clínica,-16.0100173,-48.0073482
Psicotrans,UBS/Médico,-15.8569898,-47.9545069
Uniprojeção Unidade II,Universidade,-15.6514745,-47.7820874
SESI Sobradinho,Escola,-15.6414827,-47.7875694
Clinica dos Olhos,Clínica,-15.656819,-47.8019514
Agora Consulta,Clínica,-15.8711846,-48.0636137
MEDBrasília consultas médicas,UBS/Médico,-15.8710914,-48.0633483
+ProntoSam,Clínica,-15.8709911,-48.0649632
Clínica São Cristovão,Clínica,-15.8710737,-48.0652086
Sabin medicina diagnóstica,Clínica,-15.8711033,-48.0652784
Sem nome,Escola,-15.8720076,-48.0682932
Hospital Urológico de Brasília,Hospital,-15.8224251,-47.9251883
Clínica Previne,Clínica,-15.8300767,-47.9029601
Alergo Centro,Clínica,-16.0001095,-48.0591873
Fisioterapia Juliana,Clínica,-16.0020742,-48.059756
Corre Cotia Educação Infantil,Escola,-15.812591,-48.0901515
Hospital Doctor Med,UBS/Médico,-15.6219641,-47.6555045
Centro de Saúde 04 de Planaltina,Clínica,-15.6197673,-47.6805631
Centro de Saúde 05 Arapoanga,Clínica,-15.6394064,-47.6471018
Centro Educacional Cond Estância III,Escola,-15.617662,-47.686763
Ec 15 de Planaltina,Escola,-15.6187543,-47.6853743
Escola Classe Estância de Planaltina,Escola,-15.6058917,-47.6701616
Centro Educacional Pompílio Marques de Souza,Escola,-15.5990537,-47.6828288
Escola Classe 11 de Planaltina,Escola,-15.6032788,-47.6461487
Escola Classe 13 de Planaltina,Escola,-15.603528,-47.6424268
Jardim de Infância Casa da Vivência,Escola,-15.6125447,-47.6505881
Escola Classe 06 de Planaltina,Escola,-15.6273894,-47.6466818
Centro Educacional Dona América Guimarães,Escola,-15.6402296,-47.6291493
Centro de Ensino Fundamental Juscelino Kubitscheck;Farmácia Morais,Escola,-15.6011339,-47.6878191
Escola Classe 07 de Planaltina,Escola,-15.6417188,-47.663744
Escola Classe 05 de Planaltina,Escola,-15.631591,-47.6543039
Centro Educacional Estella dos Cherubins Guimarães,Escola,-15.6306589,-47.6598865
Centro de Ensino Fundamental Queima Lençol,Escola,-15.5892286,-47.8430771
Instituto Legislativo Brasileiro,Universidade,-15.796372,-47.8618325
Faculdade de Direito(FDD),Universidade,-15.7593674,-47.8719568
Instituto de Ciencias Sociais(ICS),Universidade,-15.7574675,-47.8727186
Instituto de Relações Internacionais(IREL)/Instituto de Ciência Política,Universidade,-15.7581077,-47.8697145
"Faculdade de Administração, Contabilidade e Economia (FACE)",Universidade,-15.7584381,-47.8718227
Faculdade de Arquitetura e Urbanismo,Universidade,-15.7614841,-47.8700471
Faculdade de Comunicação,Universidade,-15.7608594,-47.8702348
Escola Parque 307-308 Sul,Escola,-15.8127384,-47.9048636
Jardim Pequizeiro,Escola,-15.8417938,-47.7841936
Medicina da Visão,Clínica,-15.8138917,-47.9134755
Interplástica FB,Clínica,-15.8139645,-47.9135355
Oral Concept,Clínica,-15.8270348,-47.9294098
Exame,Clínica,-15.8276823,-47.9290194
Clinicordis,Clínica,-15.8140168,-47.9135471
CLIAOD,Clínica,-15.8140965,-47.9136684
Orthos,Clínica,-15.8139422,-47.9135352
By Imagem,Clínica,-15.813923,-47.9135109
Laboro,Escola,-15.8020658,-47.8947785
Ashram casa Jasmin,Escola,-15.7729372,-47.8913571
1a Infância,Escola,-15.7194265,-47.8873969
Kumon,Escola,-15.7178047,-47.8853765
Instituto Aprender,Escola,-15.7875614,-47.779026
Centro de Ensino Medio 404 de Santa Maria,Escola,-16.0346901,-48.0266342
Centro de Ensino Fundamental 201 de Santa Maria,Escola,-16.0440518,-48.0337001
Centro De Ensino Fundamental 403 De Santa Maria,Escola,-16.0378358,-48.0266935
CED 03 de Sobradinho,Escola,-15.6492001,-47.8121163
CENTRO CLÍNICO  HUMAN-MED,Clínica,-15.7946189,-48.0518818
Unidade Basica de Saúde 09 de Ceilândia,Clínica,-15.8467,-48.123532
Laboratório LAGAS,Universidade,-15.7609042,-47.8706058
Sala de Cartografia,Escola,-15.7607524,-47.8707816
sala de aula (cartografia),Escola,-15.7607318,-47.8708127
auditorio IH,Escola,-15.7609407,-47.8707493
Sala de aula de cartografia,Escola,-15.7607253,-47.8708233
Escola Classe 325 de Samambaia,Escola,-15.897196,-48.1230271
Centro de Ensino Fundamental 04,Escola,-15.7836228,-47.7793112
Escola João Paulo Segundo,Escola,-15.7800243,-47.7845576
Escola Classe 02 do Paranoá,Escola,-15.7635973,-47.7783993
Clínica da Família 1 Samambaia,Clínica,-15.8984403,-48.1211662
Colégio Esplanada,Escola,-15.7627926,-47.7797241
Escola Pica Pau Amarelo,Escola,-15.7675017,-47.7808144
Centro de Ensino Fundamental ABC,Escola,-15.7651603,-47.7808464
Centro de Ensino Fundamental 16 de Taguatinga,Escola,-15.8251879,-48.0909381
Escola Classe 41 de Taguatinga,Escola,-15.8244802,-48.0876776
Escola Classe 53 de Taguatinga,Escola,-15.8314115,-48.0887666
Centro de Educação Infantil 06 de Taguatinga,Escola,-15.8194894,-48.0893513
Centro de Ensino Fundamental 12 de Taguatinga,Escola,-15.803415,-48.0727031
Escola Classe 08 de Taguatinga,Escola,-15.8009925,-48.0654916
Escola Classe 16 de Taguatinga,Escola,-15.7959507,-48.0601024
Centro Educacional 04 de Taguatinga,Escola,-15.79526,-48.0578694
Centro de Educação Infantil 02 de Taguatinga,Escola,-15.8002968,-48.0575278
Centro de Ensino Médio EIT,Escola,-15.8325716,-48.0591008
Escola Classe 39 de Taguatinga,Escola,-15.8249445,-48.0679961
Escola Classe 42 de Taguatinga,Escola,-15.8070968,-48.0954141
Escola Classe 52 de Taguatinga,Escola,-15.8009496,-48.1024624
Escola Classe 45 de Taguatinga,Escola,-15.7938856,-48.1074674
Centro de Ensino Fundamental 17 de Taguatinga,Escola,-15.7965595,-48.1023497
Centro de Ensino Especial 01 de Taguatinga,Escola,-15.8158347,-48.0859146
Escola Classe 29 de Taguatinga,Escola,-15.8150174,-48.0861907
Centro Educacional 05 de Taguatinga,Escola,-15.816291,-48.0872454
Centro de Educação Infantil 05 de Taguatinga,Escola,-15.8153945,-48.0813827
Centro de Ensino 14 de Taguatinga,Escola,-15.8201393,-48.0787582
Centro de Ensino Fundamental de Taguatinga,Escola,-15.822934,-48.0829238
Centro Educacional 06 de Taguatinga,Escola,-15.8317132,-48.0784313
Escola Classe 50 de Taguatinga,Escola,-15.8309314,-48.0750222
Escola Classe 12 de Taguatinga,Escola,-15.8055812,-48.0791453
Escola Classe 27 de Taguatinga,Escola,-15.8132804,-48.0683782
Escola Classe 18 de Taguatinga,Escola,-15.8124604,-48.0592165
Centro de Ensino Fundamental 08 de Taguatinga,Escola,-15.8173041,-48.0583993
Escola Classe 06 de Taguatinga,Escola,-15.8198697,-48.0622287
Escola Classe 19 de Taguatinga,Escola,-15.8226622,-48.0567251
UNEPOS - União de Estudos e Pós-Graduação,Universidade,-15.8233904,-48.0255371
Ortotrauma,Clínica,-15.8227417,-48.0245118
Escola Classe 02 - Vicente Pires,Escola,-15.8005066,-48.0489662
Colégio Sursum Corda,Escola,-15.7919926,-48.0465622
Colégio Anchieta,Escola,-15.8511598,-48.0651668
LAGAS ldmm,Escola,-15.7607002,-47.8702594
Departamento de Geografia,Escola,-15.7610372,-47.8707349
Sala de Aula,Escola,-15.7606721,-47.8708464
UBS 01 - Paranoá,Clínica,-15.7692895,-47.7799107
Estácio Polo EAD,Universidade,-15.8046656,-48.0427985
Unip - Polo Ead,Universidade,-15.8129705,-48.0123662
Colégio Vitória Régia,Escola,-15.8089717,-48.0247459
Cria Ativa,Escola,-15.8289445,-48.037705
Colégio Gauí,Escola,-15.791334,-48.0284326
Escola e Creche Vila do Sol,Escola,-15.8090375,-48.0209224
Colégio Recreio,Escola,-15.7977264,-48.0147547
CEE 01 de Sobradinho,Escola,-15.6502421,-47.778939
CEF 03 de Sobradinho,Escola,-15.6506224,-47.7992027
CEF 04 de Sobradinho,Escola,-15.6461205,-47.77853
CEM 01 de Sobradinho,Escola,-15.6538409,-47.7986163
EC 01 de Sobradinho,Escola,-15.649661,-47.7989711
EC 04 de Sobradinho,Escola,-15.6457263,-47.7778069
EC 05 de Sobradinho,Escola,-15.6401883,-47.802136
EC 12 de Sobradinho,Escola,-15.6601997,-47.8081062
EC 15 de Sobradinho,Escola,-15.6521219,-47.8091282
Colégio Projeção,Escola,-15.6501951,-47.7822889
Centro Educacional Lumni,Escola,-15.6559807,-47.7934665
Sabin,Clínica,-15.8903224,-47.810538
Exame,Clínica,-15.8253504,-47.930275
Sabin,Clínica,-15.8254799,-47.9300977
HFAB - Hospital de Força Aérea de Brasília,Hospital,-15.8690443,-47.9017371
Colégio Objetivo,Escola,-15.8465182,-47.9706592
BELLA VITA ESTÉTICA INTEGRADA,Hospital,-15.8406179,-47.8836992
Sem nome,Escola,-15.8371015,-47.9159772
Proceram Instituto de Odontologia,Hospital,-15.7868494,-47.8827919
Daniel Pingret Nutricionista,UBS/Médico,-15.7650774,-47.875727
unidade básica de saúde Tororó - UBS,Hospital,-15.9636979,-47.8188623
Departamento de Estatística da UnB,Universidade,-15.7586173,-47.8690877
Faculdade de Ciências da Saúde da UnB,Universidade,-15.7678488,-47.8666832
Espaço Terapêutico,Clínica,-15.7182645,-47.8968524
Cpap Sono - Terapia do Sono,Hospital,-15.8224695,-48.0583283
Baobá Materno Infantil,Escola,-15.7445546,-47.9145463
Dr. Brasília Centro Clínico,Clínica,-15.7941855,-48.0525366
Mix Imagem Diagnóstico por Imagem,Hospital,-15.8275052,-47.9277937
Elite Rede de Ensino - Ceilândia,Escola,-15.816343,-48.1229552
Colégio Ideal,Escola,-15.8404764,-48.0374038
Colégio Biângulo,Escola,-15.6467379,-47.7816528
UBS 07 - São Sebastião,Clínica,-15.9165145,-47.7709814
Atitude Clínica Multidisciplinar e Psicológica,UBS/Médico,-15.8222755,-47.9250452
Derma Star,UBS/Médico,-15.7867135,-47.8888292
Exame,Clínica,-15.8160177,-47.9164642
Instituto de Olhos,Clínica,-15.8260005,-48.0594264
Escola técnica do Paranoá,Escola,-15.7810692,-47.7843644
NeuroGama,Clínica,-15.9999282,-48.0582582
Departamento de Engenharia Elétrica,Universidade,-15.7629559,-47.872432
Salas de professores do ENE,Universidade,-15.7632795,-47.8723733
Lab Redes - ENe,Universidade,-15.7637828,-47.8721489
Instituto de Psicologia da UnB,Universidade,-15.7650488,-47.8674345
Arquivo Central da UnB,Universidade,-15.7672734,-47.869534
Escola Mundo Encantado,Escola,-15.751446,-47.7721274
cef 1 candangolandia,Escola,-15.848567,-47.9500633
Escola Jardim do Éden,Escola,-15.638075,-47.8403251
Escola Parque do Núcleo Bandeirante,Escola,-15.8653631,-47.9593448
Laboratório de Projetos Especiais do Departamento de Ciência da Computação da UnB,Universidade,-15.7587308,-47.8690585
Clinica Intersaude,Clínica,-15.7522049,-47.7641342
Benditta Academy,Escola,-15.863069,-48.0787359
On Life MEDICARE,Clínica,-15.8676295,-47.9724042
Clinigama,Clínica,-16.0291808,-48.0636593
Upa Parque lago,Hospital,-15.568732,-47.324227
Colégio Estadual  Santa Bárbara,Escola,-15.607141,-48.207362
Colégio Estadual Santa Bárbara,Escola,-15.6072262,-48.2072948
Samu,Clínica,-15.8162044,-48.1089613
Centro de Ensino Fundamental 01 de Sobradinho,Escola,-15.6575122,-47.7926862
Clinica Doutor Certo,UBS/Médico,-15.8141358,-48.1066249
MP Educação Profissional,Escola,-15.6496037,-47.7947353
Pronto Atendimento - HUB,Hospital,-15.7717997,-47.873095
Unidade Básica de Saúde (UBS) nº 3 do Paranoá Parque,Clínica,-15.7677916,-47.7920178
UBS 4 Sobradinho II,Clínica,-15.634288,-47.8379934
UBS 5 Sobradinho II,Clínica,-15.6283833,-47.8375939
UBS 6 Sobradinho II,Clínica,-15.6223956,-47.8365823
Clínica Salus Ortopedia e Fisioterapia,Hospital,-15.7325653,-47.897381
Colégio Objetivo,Escola,-15.8089218,-48.0814148
Instituto Técnico Madre Teresa,Escola,-15.8068673,-48.080377
Sem nome,Escola,-15.5403648,-47.3417906
Sem nome,Escola,-15.5455596,-47.3367641
Sem nome,Escola,-15.5448333,-47.3378365
Sem nome,Hospital,-15.549241,-47.3374291
Sem nome,Hospital,-15.5473691,-47.340901
Sem nome,Escola,-15.5401585,-47.3391154
Centro de Educação Profissional de Brazlândia Deputado Juarezão,Escola,-15.6658512,-48.1917387
Entrada Funcional - Hospital Santa Marta,Hospital,-15.8608606,-48.0408183
Internação - HSM,Hospital,-15.8607523,-48.0417647
Pronto Socorro - HSM,Hospital,-15.8610502,-48.041601
Centro Clínico - HSM,Hospital,-15.8605127,-48.0418964
Escola da Natureza,Escola,-15.7906247,-47.9043804
Arara Azul,Escola,-15.840995,-48.0083097
Escola Dó Ré Mi,Escola,-15.8291338,-48.0128692
Bambuluá,Escola,-15.8621113,-47.9976027
Escola Cresce,Escola,-15.844881,-48.0321349
Colégio Vencer,Escola,-15.8359521,-48.0319147
Colégio Objetivo,Escola,-15.8377971,-48.0251208
Escola Baby House,Escola,-15.8308847,-48.0166252
Colégio Visão,Escola,-15.8377235,-48.0297491
Mapple Bear,Escola,-15.8446989,-48.0321456
COC,Escola,-15.8447733,-48.0324871
La Casa Dei Bambini,Escola,-15.8318911,-48.0173899
Centro Educacional Brink Kids,Escola,-15.8309307,-48.0168846
Vila Baby e Kids Berçário e Educação Infantil,Escola,-15.8436187,-48.0312656
Hospital Santa Marta,Hospital,-15.76,-47.8774036
Centro de psiquiatria e psicologia Van Gogh,UBS/Médico,-15.7873805,-47.8827139
Sem nome,Escola,-15.7606179,-47.8947275
CEPI Americano do Brasil,Escola,-15.5444903,-47.340767
UBS 1 Formosinha,Hospital,-15.5616793,-47.334695
Polissonografia DF,Clínica,-15.8265031,-47.9306596
Colégio Biângulo - Vicente Pires,Escola,-15.7960487,-48.0429758
UBS 7 JARDIM RORIZ PLANALTINA,Clínica,-15.6027068,-47.6483326
Centro de Ensino Fundamental 08,Escola,-15.6035022,-47.648313
Unidade Básica de Saúde 20,Clínica,-15.6123326,-47.6518839
Galli,UBS/Médico,-15.7846595,-47.8849902
CEI 01 de Planaltina,Escola,-15.6196522,-47.6830226
Centro de Educação Infantil 02 de Planaltina,Escola,-15.6032553,-47.64601
Centro de Educação Infantil Palmeiras,Escola,-15.528427,-47.7409324
CAIC Assis Chateaubriand,Escola,-15.6181856,-47.6423734
Escola Classe 01 de Planaltina,Escola,-15.6258573,-47.6548813
Escola Classe 03,Escola,-15.6150475,-47.6463251
Escola Classe 04 de Planaltina,Escola,-15.6212529,-47.6466684
Escola Classe 09 de Planaltina,Escola,-15.6105816,-47.644845
Escola Classe 14 de Planaltina,Escola,-15.6136602,-47.6323535
Escola Classe 16 de Planaltina,Escola,-15.6197748,-47.6812103
Escola Classe Altamir,Escola,-15.6330541,-47.6811748
Escola Classe Aprodarmas,Escola,-15.6640596,-47.6576236
Escola Classe Barra Alta,Escola,-15.8482231,-47.4575123
Escola Classe Rural Coperbrás,Escola,-15.7580899,-47.5474614
Escola Classe Córrego do Meio,Escola,-15.6956357,-47.7075415
EC Estância do PipiripauEC Estância do Pipiripau,Escola,-15.6098703,-47.5639246
Escola Classe ETA 44,Escola,-15.5928241,-47.7296676
Escola Classe Jardim dos Ipês - SEDF,Escola,-15.6550467,-47.6255955
Escola Classe Mestre D'armas,Escola,-15.6724707,-47.6463837
escola classe monjolo,Escola,-15.5377193,-47.68626
Escola Classe Núcleo Rural Córrego Do Atoleiro,Escola,-15.6241466,-47.6148157
Escola Classe Paraná,Escola,-15.6151012,-47.6452919
Escola Classe Pedra Fundamental,Escola,-15.6737508,-47.6725071
Escola Classe Rajadinha,Escola,-15.7536706,-47.6507604
Escola Classe Reino das Flores,Escola,-15.6932135,-47.6024738
Escola Classe Vale do Sol,Escola,-15.654547,-47.6513835
Escola Classe Vale Verde,Escola,-15.5376752,-47.6531224
Centro de Ensino Fundamental 01 de Planaltina,Escola,-15.6228127,-47.6537524
Centro de Ensino Fundamental 02 de Planaltina,Escola,-15.6219413,-47.65709
Centro de Ensino Fundamental 03 de Planaltina,Escola,-15.6156951,-47.6409306
Centro de Ensino Fundamental 04 de Planaltina;Centro Interescolar de Línguas 01 de Planaltina,Escola,-15.6226527,-47.6517824
Centro de Ensino Fundamental 08 de Planaltina,Escola,-15.6212976,-47.6453889
Centro de Ensino Bonsucesso,Escola,-15.5055617,-47.5852889
Centro de Ensino Fundamental Cerâmicas Reunidas Dom Bosco,Escola,-15.5732311,-47.3855408
Centro de Ensino Fundamental Juscelino Kubitschek,Escola,-15.6010772,-47.6879654
Centro de Ensino Fundamental Nossa Senhora de Fátima,Escola,-15.6033204,-47.6581162
Centro de Ensino Fundamental Rio Preto,Escola,-15.7633196,-47.4930429
Centro de Ensino Fundamental São José,Escola,-15.7037431,-47.3736832
Centro Educacional 03 de Planaltina,Escola,-15.6033274,-47.6500014
CED Águas do Cerrado - CEDAC,Escola,-15.6425549,-47.6237955
Centro Educacional Osorio Bachin,Escola,-15.5269488,-47.6304782
Centro de Ensino  Pipiripau II,Escola,-15.5347588,-47.5123173
Centro Educacional Taquara,Escola,-15.633936,-47.5220789
Centro Educacional Vale do Amanhecer,Escola,-15.6796961,-47.6567448
Centro Educacional Várzeas,Escola,-15.8210547,-47.5705111
Centro de Ensino Médio 01 de Planaltina (Centrão),Escola,-15.6205384,-47.6517685
Centro de Ensino Médio 02 de Planaltina,Escola,-15.6214205,-47.6536844
Centro de Ensino Especial 01 de Planaltina,Escola,-15.620076,-47.6536185
CEP - Escola Técnica de Saúde de Planaltina,Escola,-15.6247611,-47.6546156
UBS 1 PLANALTINA,Clínica,-15.6178086,-47.641176
UBS 2 PLANALTINA,Clínica,-15.612357,-47.6432213
UBS 18 PLANALTINA,Clínica,-15.6151549,-47.6514704
ReCriar Psicologia,Clínica,-15.8280475,-48.0129047
Dra. Mayara Flores,Hospital,-15.8354434,-47.9134253
Gileade Centro Clínico,Hospital,-15.8350186,-48.0121916
Dr Samuel Abner - Cardiologista Intervencionista,UBS/Médico,-15.8142122,-47.9136271
Visão Hospital de Olhos,Hospital,-15.8225642,-48.0648252
Clínica Otorrino Brasília,UBS/Médico,-15.8074789,-47.9337623
Vila Clínicas,Clínica,-15.7954444,-47.8514874
